name,lat,lng,icon,color,url,comment
豆田町,33.3274,130.9398,building,red,https://goo.gl/maps/QX8Y4Z2H8v5N8SUMA,"江戸時代からの歴史的な街並みが残る観光スポット"
日田駅,33.3216,130.9399,train,blue,https://goo.gl/maps/7LKjH9m4J6RZnqzbA,"JR久大本線の駅。久留米・大分方面への玄関口"
天領日田資料館,33.3250,130.9392,landmark,green,https://goo.gl/maps/uPwQH5tDX4Rk8SUMA,"江戸時代の日田の歴史を学べる資料館"
日田川,33.3230,130.9450,water,blue,https://goo.gl/maps/vN8Y4Z2H8v5N8SUMA,"春には桜の名所となる景勝地"
小鹿田焼の里,33.3378,130.9470,building,purple,https://goo.gl/maps/wN8Y4Z2H8v5N8SUMA,"伝統的な陶芸の里。工房や販売所が点在"
三隈川,33.3190,130.9350,water,blue,https://goo.gl/maps/xN8Y4Z2H8v5N8SUMA,"九州三大河川の一つ。屋形船での川下りが人気"
サッポロビール九州日田工場,33.3143,130.9392,building,orange,https://goo.gl/maps/yN8Y4Z2H8v5N8SUMA,"工場見学や試飲が楽しめる観光スポット"