name,lat,lng,icon,color,url,comment
ウキヨノハナレ,33.31342637156242,130.5149666956518,デザート,blue,https://maps.app.goo.gl/JPyPEzJrr95fKMZMA,""
おかずの店 魚ぜん,33.31359383409815,130.51481724906915,軽食,blue,https://maps.app.goo.gl/SAnk55xFRErnqKst7,""
フルーツパーラー大フク,33.31358423653807,130.51364691534272,デザート,blue,https://maps.app.goo.gl/VKZaDsknEshNSmUF6,""
韓流屋台 六ツ門ポチャ,33.31342955003994, 130.51407486441784,居酒屋,blue,https://maps.app.goo.gl/YWHAYsLP2TNsS55C7,""
大栄ラーメン,33.31171413420523,130.51767291871298,飲食店,blue,https://maps.app.goo.gl/Z1F1utHLLcD4BEL17,""
かすり屋,33.31355083418439, 130.51348512056273,飲食店,blue,https://maps.app.goo.gl/WcUSV8NtzdHeFnXcA,""
炭火焼肉 佐蔵,33.32236417123696, 130.51772349912605,飲食店,blue,https://maps.app.goo.gl/tLf7Qu3Eq8xLsZ3v5,""
石橋文化センター,33.31341970272073, 130.5304186498413,観光,blue,https://maps.app.goo.gl/MZM2QsnTTt4kY6ib9,""
高良大社,33.30199811504891, 130.56716381795275,観光,blue,https://maps.app.goo.gl/4KJr34Ep2NLNj3tg6,""
久留米市鳥類センター,33.319918304096134, 130.5295370602814,観光,blue,https://maps.app.goo.gl/Q8AUjVM9LfcpGXjg7,""
久留米百年公園,33.322129601423384, 130.53452063688124,観光,blue,https://maps.app.goo.gl/ksCPrHDPEYH1C35M6,""
西原糸店 かすりとだがし 創業大正六年,33.318176321078425, 130.50872792089194,観光,blue,https://maps.app.goo.gl/xgKUWoMpCaGvk2C69,""
洋食屋 にしむら,33.29655825028209, 130.5111687294882,飲食店,blue,https://maps.app.goo.gl/sE6W6Yu2XK4Yszht9,""
カフェ モ・クレ,33.30485326779491, 130.54967043744537,飲食店,blue,https://maps.app.goo.gl/i4vQzWKTbAJKTTGQ9,""
シェ オガワ,33.301429490052556, 130.55122991446873,飲食店,blue,https://maps.app.goo.gl/NoMfiA7vw9PLRoo38,""
いちごきらり みのうヴィレッジ,33.313214432560756, 130.57959361631853,体験,blue,https://maps.app.goo.gl/c9gShEqQobVKiHN3A,""
銀のすぷーん 久留米本店,33.31497449989471, 130.52826218138884,デザート,blue,https://maps.app.goo.gl/bXqK8hfd9JfjRKaJ7,""
湯の坂久留米温泉,33.30951037600261, 130.53074990131566,温泉,blue,https://maps.app.goo.gl/AT9fkmYa4y1FxUx38,""
カフェ＆ギャラリーショップ楽水亭,33.31202696735847, 130.53122157029034,デザート,blue,https://maps.app.goo.gl/QUV3sV528XBkoKuZ9,""
むた珈琲,33.3130007649049, 130.51874232426223,喫茶店,blue,https://maps.app.goo.gl/FqRbqDw1JqJrDuBX8,""
鳥喜,33.31271836957416, 130.51892949521104,居酒屋,blue,https://maps.app.goo.gl/9MpibcRqAUBdkuL46,""
久留米宗社 日吉神社,33.31426283275649, 130.5174014758396,観光,blue,https://maps.app.goo.gl/Cp9a3YsV5rKiJdih9,""
7+ COFFEE,33.313451637333536, 130.51343208508834,喫茶店,blue,https://maps.app.goo.gl/Uc3KdXAKrX2NJd8QA,""
山帰来,33.31986185195976, 130.636693812619,飲食店,blue,https://maps.app.goo.gl/Dzoyo9HgGY5qupDp9,""
KURUMEジェラート,33.316882421969176, 130.51867561273272,デザート,blue,https://maps.app.goo.gl/AadfyFxiSCrLsZEF7,""
巨峰ワイナリー,33.32254256559342, 130.69718745342712,酒蔵,blue,https://maps.app.goo.gl/TRFtPeRm2FHTbKnd7,""
紅乙女 耳納蒸留所,33.32410161868844, 130.69724298041302,酒蔵,blue,https://maps.app.goo.gl/xyuK7vnbh3Lr9pxQ8,""
ラーメン龍の家 上津本店,33.288080316764116, 130.52454145864715,ラーメン,blue,https://maps.app.goo.gl/dYvEv7gdioyTKcVWA,""
南京千両 マリン店,33.3168658344107, 130.51770089945526,ラーメン,blue,https://maps.app.goo.gl/StZi5Mr3G3guMkqJ7,""
拉麺 久留米 本田商店 久留米本店,33.29244594643296, 130.52583114144284,ラーメン,blue,https://maps.app.goo.gl/YfbXjTGUrYS68MYd9,""
おなか元気居酒屋 まんまる,33.31112807964203, 130.51602702829092,餃子,blue,https://maps.app.goo.gl/6ueTcEWFygxRDftz9,""
上海夢飯店,33.31446853773925, 130.5213484451542,飲食店,blue,https://maps.app.goo.gl/Axm5xWupt4nr42D7A,""
ぎょうざ専門店 湖月 久留米店(こげつ),33.314915334279256, 130.51151868138882,餃子,blue,https://maps.app.goo.gl/kW9yRjrjXsgyfVTBA,""
串焼 ほたる川,33.31717503713508, 130.51840502317273,焼き鳥,blue,https://maps.app.goo.gl/CeVMZcLUfg5JFqEKA,""
焼とり 鉄砲 上津バイパス店,33.285635671309485, 130.51427436419638,焼き鳥,blue,https://maps.app.goo.gl/gFuocW9YCgHHfSox9,""
久留米居酒屋楽園,33.3125939403419, 130.52003996452558,焼肉,blue,https://maps.app.goo.gl/XEBoqGR7wbpNYQGx7,""
レストラン ホイリゲ,33.322253195922876, 130.69654333438493,レストラン,red,https://maps.app.goo.gl/vgnhFe7GnmWMGTYF7,""
Restaurant Spoon,33.326417952551054, 130.7005556364502,レストラン,red,https://maps.app.goo.gl/aX7zWUaEG6K9fUyw9,""
カフェ・レストラン FLEUR（フルール）,33.32455490594513, 130.69272704885367,レストラン,red,https://maps.app.goo.gl/BBNx4JmRDsMpWhdX8,""
グリーンヒル,33.32021522081815, 130.6778761276325,レストラン,red,https://maps.app.goo.gl/d1UkYjQpBwqb8y8s8,""
あいはなカフェ,33.3194815180578, 130.67423551207426,レストラン,red,https://maps.app.goo.gl/EaGKFvqcNgGCMkww8,""
Chez Sagara,33.3348247004846, 130.69052189118233,パン屋,blue,https://maps.app.goo.gl/Ya4UfmKWkfYLeQbq8,""
BAR Believe（バー・ビリーヴ,33.31719327831763, 130.5179931563545,バー,blue,https://maps.app.goo.gl/94VYqomH6veKdv4T8,""
イナトミ舶来居酒屋,33.31468291001072, 130.5131008072853,バー,blue,https://maps.app.goo.gl/m88hZwb9m6SjrZDK8,""
ペーパームーン,33.31268340000234, 130.51999710923684,バー,blue,https://maps.app.goo.gl/8UhTL1Xh14isYMjv9,""
One Shot,33.31239648958375, 130.52034043197855,バー,blue,https://maps.app.goo.gl/tuugiGxZaaf1To888,""
リトルモンキー,33.31203785023273, 130.52439593186486,バー,blue,https://maps.app.goo.gl/YwFFTb6zyAYYhijr6,""
ワインバー オルトレポ,33.312378557651236, 130.51712178127514,バー,blue,https://maps.app.goo.gl/aJnQLVtY7GMmH6819,""
The Highball stand 久留米店,33.310758618267045, 130.5201558589645,バー,blue,https://maps.app.goo.gl/SZ2oyR3tDd6dG3f37,""
カフェドアール,33.33841308722989, 130.5202178581024,喫茶店,blue,https://maps.app.goo.gl/PCmM4F59kaPgCddSA,""
バー ジャム 久留米,33.31285343515639, 130.51334590612092,バー,blue,https://maps.app.goo.gl/C9i6g6E7NpFRMRMC9,""
焼鳥 ダルム屋,33.31286912551208, 130.51387430127807,焼き鳥,blue,https://maps.app.goo.gl/zA17aDpECSSD6Nu26,""
ぎょうざ 娘娘,33.3129526793742, 130.5142150911529,餃子,blue,https://maps.app.goo.gl/ZzeRXW1c9CJ6EFku9,""
酒と肉料理 六ツ門日和,33.31290132968517, 130.5141395423778,居酒屋,blue,https://maps.app.goo.gl/RxeQY3ZmjuAZmg9c8,""
天婦羅 うた川,33.31282556779365, 130.51432488870603,天ぷら,blue,https://maps.app.goo.gl/FRfNNiLBRdNEtBMP9,""
トラノコカフェ,33.31289977145929, 130.51436393474316,喫茶店,blue,https://maps.app.goo.gl/mfbF4tdirXKiRjpLA,""
炭焼き 結火,33.31286411162835, 130.51430241433897,焼き鳥,blue,https://maps.app.goo.gl/uW28dLvnMbCWrxjq8,""
スモーキールースト,33.31287416459722, 130.51417467731216,バー,blue,https://maps.app.goo.gl/twAUYUNgLAEHf2mj6,""
エイト・モダン,33.31298343663253, 130.51405867177638,JAZZ喫茶,red,https://maps.app.goo.gl/gk3y9HPpphGfbW8t6,""
フラワーショップアカシ,33.312990721431966, 130.514399312312,花屋,red,https://maps.app.goo.gl/Kzs1hNiUM9oCxQENA,""
バー ジンガ45,33.3130964591096, 130.51418210461148,バー,blue,https://maps.app.goo.gl/LT57xDGpMGzPkVdC7,""
鐵板酒場晴カス,33.31319620461603, 130.51410163834393,お好み焼き,blue,https://maps.app.goo.gl/dgR5DN9Wuzt6noaNA,""
ウキヨショウテン,33.313231432678144, 130.51470882687926,喫茶店,blue,https://maps.app.goo.gl/w5Xa4rGEPXPBYK4z6,""
ひとくち餃子 てん屋,33.31365058654043, 130.51486506555753,餃子,blue,https://maps.app.goo.gl/KXMe4oGesHw52VZk8,""
夜中まで頑張ります！たこやきジャンボ,33.31327583127296, 130.51358123785192,たこ焼き,blue,https://maps.app.goo.gl/tjqnhEj32G1gVZN57,""
重永鮮魚本店,33.31310043616876, 130.5134927249576,魚料理,blue,https://maps.app.goo.gl/tjqnhEj32G1gVZN57,""
のん兵衛亭,33.31332738503611, 130.5134565151336,レストラン,blue,https://maps.app.goo.gl/rAn9byMtmV2uR8UP9,""
MOKUS,33.31297218967557, 130.51257999255444,ワインバー,blue,https://maps.app.goo.gl/PDs22D7gUjjERmfK6,""
PORTA ROSSA,33.31306392628056, 130.51232252025292,イタリアン,blue,https://maps.app.goo.gl/Jpf2GiBPRDTnmc3o8,""
ラーメン 潘陽軒本店 (ばんようけん) 創業1948年,33.31308746175619, 130.51229368650704,ラーメン,blue,https://maps.app.goo.gl/ZtUrczTn7apVhe989,""
しのはら珈琲店,33.31285590366531, 130.51218670024176,喫茶店,blue,https://maps.app.goo.gl/iRvBUUr1vDxhLD7A6,""
キッチンハウス青沼,33.31284418573476, 130.51149497056574,洋食店,blue,https://maps.app.goo.gl/2dcwYBoCsA73zNj57,""