name,lat,lng,icon,color,url,comment
久留米駅,33.3192,130.5125,train,blue,https://goo.gl/maps/AN8Y4Z2H8v5N8SUMA,"JR久留米駅。九州の交通の要所"
石橋文化センター,33.3240,130.5174,landmark,purple,https://goo.gl/maps/BN8Y4Z2H8v5N8SUMA,"美術展や文化イベントが開催される文化施設"
久留米城址,33.3173,130.5068,landmark,green,https://goo.gl/maps/CN8Y4Z2H8v5N8SUMA,"有馬氏の居城跡。歴史公園として整備"
水田美術館,33.3208,130.5208,landmark,red,https://goo.gl/maps/DN8Y4Z2H8v5N8SUMA,"日本画や洋画のコレクションを展示"
久留米絣会館,33.3146,130.5187,building,orange,https://goo.gl/maps/EN8Y4Z2H8v5N8SUMA,"伝統工芸・久留米絣の歴史と技法を紹介"
成田山久留米分院,33.3354,130.5064,landmark,green,https://goo.gl/maps/FN8Y4Z2H8v5N8SUMA,"美しい日本庭園を有するお寺"
センターレイスル久留米,33.3141,130.5229,building,blue,https://goo.gl/maps/GN8Y4Z2H8v5N8SUMA,"ショッピングモールと娯楽施設の複合施設"